CIUDAD,LATITUD,LONGITUD
"Gran muralla china, China",40.43190867,116.5703696
"Ciudad de Petra, Jordania",30.32849342,35.44436426
"Cristo Redentor, Brasil",-22.95184683,-43.21048607
"Machu Picchu, Peru",-13.16308725,-72.54497405
"Templo de Kukulcan, Mexico",20.68313645,-88.5687242
"Coliseo, Italia",41.89034596,12.49226308
"Taj Mahal, India",27.17539294,78.04216366
